     2.11           OBSERVATION DATA    G (GPS)             RINEX VERSION / TYPE
teqc  2019Feb25     UNAVCO Archive Ops  20200530 00:58:00UTCPGM / RUN BY / DATE
Solaris x86 5.10|AMD64|cc SC5.8 -xarch=amd64|=+|=+          COMMENT
BIT 2 OF LLI FLAGS DATA COLLECTED UNDER A/S CONDITION       COMMENT
P101                                                        MARKER NAME
                                                            MARKER NUMBER
Glen Mattioli       UNAVCO                                  OBSERVER / AGENCY
4520250595          TRIMBLE NETRS       1.3-2               REC # / TYPE / VERS
0220365594          TRM29659.00     SCIT                    ANT # / TYPE
 -1728217.5787 -4447317.1429  4221483.4165                  APPROX POSITION XYZ
        0.0083        0.0000        0.0000                  ANTENNA: DELTA H/E/N
     1     1                                                WAVELENGTH FACT L1/2
     7    L1    L2    C1    P2    P1    S1    S2            # / TYPES OF OBSERV
    15.0000                                                 INTERVAL
    18                                                      LEAP SECONDS
input file: p101202005290000a.tgd                           COMMENT
RINEX file created by UNAVCO GPS Archive.                   COMMENT
For more information contact archive-gps@unavco.org         COMMENT
Monument ID: 19368                                          COMMENT
UNAVCO 4-char name:   P101                                  COMMENT
4-char name from Log or data file: P101                     COMMENT
Monument location: 41.692274 -111.236016 2016.1229          COMMENT
Visit ID: 123535                                            COMMENT
                                                            COMMENT
Randolph_Land_Livestock_UT_2005_CGPS                        COMMENT
                                                            COMMENT
doi:10.7283/T5JD4TQS                                        COMMENT
End of DB comments                                          COMMENT
 SNR is mapped to RINEX snr flag value [0-9]                COMMENT
  L1 & L2: min(max(int(snr_dBHz/6), 0), 9)                  COMMENT
  2020     5    29     0     0    0.0000000     GPS         TIME OF FIRST OBS
                                                            END OF HEADER
 20  5 29  0  0  0.0000000  0 11G15G21G26G02G25G20G05G18G29G12G13
  -9970785.480 7  -7713836.92444  23858097.680    23858087.262
        42.000          26.700
 -10340171.377 7  -7933407.32944  23516616.125    23516604.477
        42.800          26.000
  -9151565.933 6  -7114358.44145  23709300.172    23709291.863
        38.100          35.700
  -6783231.328 6  -4836311.65844  24178174.945    24178162.359
        40.700          24.700
 -11069728.144 7  -8532398.43645  22744363.875    22744355.098
        44.200          33.400
  -5087935.195 6  -3473397.28442  24510528.703    24510518.344
        38.900          17.800
 -22852259.999 8 -17729851.14348  21318594.008    21318582.652
        48.300          51.300
 -18462259.463 7 -14275214.46546  22010358.852    22010347.555
        47.400          36.200
 -27179614.211 8 -21142710.01848  20255535.500    20255523.324
        52.500          49.100
  -3938468.989 7  -3056044.68944  24355748.250    24355737.891
        43.500          29.600
  -8937274.285 6  -6276784.21043  23944863.602    23944852.422
        41.100          22.500
 20  5 29  0  0 15.0000000  0 11G15G21G26G02G25G20G05G18G29G12G13
 -10021825.969 6  -7753608.71144  23848385.531    23848374.234
        41.700          27.400
 -10371746.480 7  -7958011.27944  23510607.773    23510595.949
        43.100          27.900
  -9180503.162 6  -7136906.90446  23703793.445    23703786.016
        38.800          36.300
  -6747948.937 6  -4808818.89244  24184889.273    24184876.219
        40.200          24.000
 -11020780.590 7  -8494257.50845  22753678.328    22753669.844
        44.300          33.200
  -5141376.657 6  -3515039.98343  24500358.789    24500348.664
        39.000          19.900
 -22819979.510 8 -17704697.52148  21324737.078    21324725.371
        48.900          51.300
 -18494473.051 7 -14300315.94046  22004228.547    22004217.016
        47.700          36.900
 -27188055.268 8 -21149287.46448  20253929.305    20253917.246
        52.900          49.200
  -3880608.976 7  -3010959.01144  24366759.211    24366748.793
        43.000          29.800
  -8977681.206 6  -6308270.10643  23937174.813    23937162.871
        40.400          22.200
 20  5 29  0  0 30.0000000  0 11G15G21G26G02G25G20G05G18G29G12G13
 -10072845.753 6  -7793364.34144  23838675.859    23838665.207
        41.600          25.600
 -10403291.684 7  -7982591.93644  23504604.867    23504593.160
        43.000          27.100
  -9209323.050 6  -7159363.93646  23698308.992    23698301.211
        39.200          36.800
  -6712657.306 6  -4781318.95443  24191604.766    24191592.063
        40.500          23.300
 -10971773.289 7  -8456070.01845  22763003.992    22762995.625
        43.900          32.700
  -5194795.673 6  -3556665.11843  24490193.813    24490183.512
        39.800          19.000
 -22787589.430 8 -17679458.50748  21330900.617    21330888.969
        49.300          51.400
 -18526637.037 7 -14325378.76146  21998108.047    21998096.750
        47.100          36.700
 -27196389.863 8 -21155781.96048  20252343.156    20252331.039
        53.200          49.200
  -3822746.399 7  -2965871.33644  24377769.984    24377759.391
        42.900          29.700
  -9018032.657 6  -6339712.75243  23929494.977    23929484.559
        40.000          22.000
 20  5 29  0  0 45.0000000  0 11G15G21G26G02G25G20G05G18G29G12G13
 -10123842.333 6  -7833101.91744  23828972.203    23828961.434
        41.500          27.000
 -10434804.905 7  -8007147.66444  23498608.000    23498595.883
        43.500          26.500
  -9238023.365 6  -7181727.80946  23692848.086    23692839.484
        39.700          36.200
  -6677354.423 6  -4753810.23444  24198323.242    24198309.836
        40.200          24.800
 -10922704.619 7  -8417834.71945  22772341.273    22772333.199
        43.500          32.400
  -5248190.110 6  -3598271.13943  24480032.289    24480022.398
        38.600          19.300
 -22755088.075 8 -17654132.78248  21337085.711    21337073.594
        48.400          51.400
 -18558749.434 7 -14350401.39946  21991997.211    21991986.207
        47.300          36.100
 -27204615.855 8 -21162191.82348  20250777.773    20250765.715
        52.900          49.200
  -3764879.555 7  -2920780.33344  24388781.641    24388771.164
        43.200          29.100
  -9058326.340 6  -6371110.46443  23921826.953    23921816.711
        39.200          21.500
 20  5 29  0  1  0.0000000  0 11G15G21G26G02G25G20G05G18G29G12G13
 -10174816.236 7  -7872821.80744  23819271.570    23819260.977
        42.300          27.300
 -10466286.845 7  -8031679.00744  23492617.313    23492605.488
        43.700          27.000
  -9266604.825 6  -7203999.06246  23687408.914    23687400.371
        39.600          36.000
  -6642041.283 6  -4726293.52043  24205042.953    24205029.723
        40.600          22.900
 -10873575.952 7  -8379552.65645  22781690.352    22781681.867
        43.600          33.000
  -5301560.597 6  -3639858.49543  24469877.141    24469866.137
        39.500          19.300
 -22722476.712 8 -17628721.33748  21343291.328    21343279.563
        48.600          51.400
 -18590811.168 7 -14375384.55146  21985895.992    21985884.871
        47.900          36.200
 -27212734.049 8 -21168517.69348  20249232.766    20249220.883
        52.600          49.100
  -3707009.663 7  -2875686.97744  24399794.070    24399783.418
        42.600          28.600
  -9098562.712 6  -6402463.44843  23914170.570    23914160.328
        39.800          21.800
 20  5 29  0  1 15.0000000  0 11G15G21G26G02G25G20G05G18G29G12G13
 -10225766.676 7  -7912523.41544  23809577.008    23809565.359
        43.000          26.400
 -10497737.478 7  -8056185.95944  23486632.953    23486620.660
        43.200          27.200
  -9295066.790 6  -7226177.19846  23681993.023    23681984.598
        40.200          36.400
  -6606717.452 6  -4698768.47443  24211765.211    24211751.277
        40.500          23.500
 -10824387.225 7  -8341223.80545  22791050.383    22791042.250
        44.500          32.700
  -5354906.601 6  -3681426.75043  24459725.492    24459714.898
        39.300          19.600
 -22689755.232 8 -17603224.08748  21349517.844    21349505.668
        48.600          51.200
 -18622821.755 7 -14400327.84446  21979804.555    21979793.844
        47.200          36.800
 -27220743.752 8 -21174759.01948  20247708.492    20247696.668
        53.200          49.200
  -3649136.765 7  -2830591.25744  24410806.680    24410796.613
        42.400          28.600
  -9138740.959 6  -6433771.12743  23906525.094    23906514.910
        39.500          21.700
 20  5 29  0  1 30.0000000  0 11G15G21G26G02G25G20G05G18G29G12G13
 -10276693.723 7  -7952206.80244  23799885.117    23799874.289
        42.000          27.600
 -10529157.134 7  -8080668.78644  23480653.359    23480641.184
        43.400          27.900
  -9323409.533 6  -7248262.43646  23676599.906    23676591.305
        39.900          36.400
  -6571383.376 6  -4671235.46443  24218489.375    24218475.910
        41.100          22.800
 -10775139.314 7  -8302848.82145  22800421.914    22800413.723
        43.700          32.500
  -5408228.390 6  -3722976.14543  24449578.820    24449568.754
        40.100          19.300
 -22656924.383 8 -17577641.61148  21355765.391    21355753.332
        48.700          51.200
 -18654781.689 7 -14425231.66846  21973722.539    21973711.535
        47.000          36.700
 -27228645.441 8 -21180916.17748  20246205.164    20246193.047
        52.700          49.100
  -3591261.701 6  -2785493.85644  24421819.961    24421809.953
        41.500          28.400
  -9178861.117 6  -6465033.58743  23898891.172    23898879.348
        40.900          20.900
 20  5 29  0  1 45.0000000  0 11G15G21G26G02G25G20G05G18G29G12G13
 -10327597.200 6  -7991871.82144  23790198.984    23790187.629
        41.800          27.300
 -10560546.015 7  -8105127.62144  23474680.438    23474667.793
        43.000          26.800
  -9351632.933 6  -7270254.68946  23671228.703    23671220.570
        39.200          37.300
  -6536039.146 6  -4643694.52044  24225215.188    24225201.488
        40.500          25.300
 -10725832.705 7  -8264428.10645  22809804.930    22809796.152
        43.600          32.600
  -5461525.693 6  -3764506.48543  24439436.398    24439426.801
        39.200          20.100
 -22623984.687 8 -17551974.31448  21362033.781    21362021.957
        48.400          51.200
 -18686691.036 7 -14450096.08246  21967650.570    21967639.215
        47.500          36.200
 -27236439.119 8 -21186989.18348  20244721.844    20244710.313
        53.200          49.300
  -3533384.805 6  -2740395.02944  24432833.992    24432823.281
        40.500          26.900
  -9218922.886 6  -6496250.50143  23891267.094    23891256.559
        40.200          21.500
 20  5 29  0  2  0.0000000  0 11G15G21G26G02G25G20G05G18G29G12G13
 -10378475.972 7  -8031517.58444  23780516.359    23780506.176
        42.200          27.200
 -10591903.729 7  -8129562.18444  23468713.023    23468700.730
        44.000          26.900
  -9379736.401 6  -7292153.48246  23665880.508    23665872.551
        39.200          36.100
  -6500684.545 6  -4616145.49944  24231942.922    24231928.754
        41.200          24.700
 -10676467.410 7  -8225961.66545  22819199.430    22819190.184
        43.900          32.400
  -5514798.021 6  -3806017.33543  24429298.945    24429289.055
        39.100          20.900
 -22590936.066 8 -17526222.15148  21368322.539    21368310.539
        49.000          51.300
 -18718549.411 7 -14474920.77046  21961588.281    21961576.809
        47.200          36.900
 -27244124.091 8 -21192977.47548  20243259.508    20243247.625
        52.100          49.300
  -3475505.988 6  -2695294.71344  24443847.445    24443837.203
        40.000          25.900
  -9258925.488 6  -6527421.34143  23883654.180    23883643.996
        39.400          21.800
 20  5 29  0  2 15.0000000  0 11G15G21G26G02G25G20G05G18G29G12G13
 -10429330.046 6  -8071144.11344  23770839.148    23770828.555
        41.200          26.900
 -10623230.230 7  -8153972.40444  23462751.508    23462739.742
        43.700          26.800
  -9407719.633 6  -7313958.58446  23660555.609    23660547.652
        38.600          36.100
  -6465319.501 6  -4588588.33043  24238672.102    24238658.988
        40.900          22.800
 -10627043.699 7  -8187449.70645  22828603.758    22828595.508
        43.200          32.500
  -5568045.210 6  -3847508.60343  24419166.977    24419156.441
        38.600          21.300
 -22557778.587 8 -17500385.16548  21374632.211    21374620.328
        48.900          51.200
 -18750356.682 7 -14499705.64346  21955535.422    21955523.949
        47.800          37.200
 -27251700.096 8 -21198880.85848  20241817.922    20241805.980
        52.900          49.300
  -3417625.717 6  -2650193.26544  24454861.547    24454851.891
        39.700          25.200
  -9298868.565 6  -6558545.81543  23876053.828    23876042.941
        40.200          21.300
 20  5 29  0  2 30.0000000  0 11G15G21G26G02G25G20G05G18G29G12G13
 -10480158.816 6  -8110750.91844  23761166.602    23761156.301
        41.100          27.300
 -10654525.060 7  -8178357.96744  23456796.328    23456784.621
        42.800          28.100
  -9435582.412 6  -7335669.82345  23655253.313    23655245.238
        38.500          35.500
  -6429944.005 6  -4561023.00944  24245403.586    24245390.355
        40.600          26.200
 -10577561.919 7  -8148892.49745  22838019.898    22838011.590
        43.700          31.900
  -5621267.028 6  -3888980.08243  24409038.922    24409028.094
        38.800          20.600
 -22524512.422 8 -17474463.47848  21380962.203    21380950.730
        48.800          51.100
 -18782112.782 7 -14524450.64046  21949492.625    21949481.035
        47.400          37.200
 -27259166.992 8 -21204699.22448  20240397.109    20240385.285
        53.000          49.400
  -3359743.985 6  -2605090.67244  24465875.289    24465865.984
        38.900          24.500
  -9338751.686 6  -6589623.54643  23868464.297    23868453.059
        40.400          21.700
 20  5 29  0  2 45.0000000  0 11G15G21G26G02G25G20G05G18G29G12G13
 -10530962.311 6  -8150338.00944  23751499.289    23751488.461
        41.800          26.200
 -10685788.993 7  -8202719.45944  23450846.484    23450835.480
        42.900          28.600
  -9463324.919 6  -7357287.34745  23649974.602    23649966.176
        38.300          35.300
  -6394558.529 7  -4533449.92944  24252138.109    24252124.586
        42.000          24.500
 -10528022.894 7  -8110290.67745  22847446.820    22847438.277
        43.700          31.600
  -5674463.649 6  -3930431.97443  24398916.086    24398905.258
        38.700          22.200
 -22491138.571 8 -17448457.88548  21387313.625    21387301.801
        49.600          51.200
 -18813818.169 7 -14549156.12546  21943458.922    21943447.918
        47.300          37.300
 -27266525.027 8 -21210432.75448  20238996.805    20238984.980
        52.900          49.300
  -3301861.786 6  -2559987.74343  24476890.820    24476880.930
        37.600          22.600
  -9378574.718 6  -6620654.48843  23860885.531    23860875.055
        39.900          21.800
 20  5 29  0  3  0.0000000  0 11G15G21G26G02G25G20G05G18G29G12G13
 -10581739.765 6  -8189904.84444  23741836.367    23741826.242
        41.300          26.800
 -10717021.905 7  -8227056.75544  23444903.133    23444891.777
        42.600          28.200
  -9490946.627 6  -7378810.74445  23644717.320    23644709.949
        38.600          35.300
  -6359162.693 7  -4505868.79844  24258873.438    24258859.563
        42.400          24.300
 -10478426.734 7  -8071644.34545  22856884.805    22856876.027
        43.700          31.900
  -5727634.636 6  -3971863.84643  24388797.977    24388787.441
        38.300          20.600
 -22457657.109 8 -17422368.44348  21393684.602    21393673.012
        48.700          51.100
 -18845472.429 7 -14573821.76946  21937435.375    21937424.137
        46.900          37.300
 -27273773.767 8 -21216081.12748  20237617.367    20237605.484
        52.700          49.300
  -3243979.105 6  -2514884.39043  24487905.680    24487896.082
        36.600          21.500
  -9418337.147 6  -6651638.15943  23853320.391    23853309.211
        40.500          22.300
 20  5 29  0  3 15.0000000  0 11G15G21G26G02G25G20G05G18G29G12G13
 -10632490.978 6  -8229451.22044  23732179.172    23732168.754
        41.000          27.400
 -10748223.877 7  -8251369.95044  23438965.547    23438954.660
        42.600          26.500
  -9518447.368 6  -7400239.88045  23639484.383    23639476.719
        38.600          34.700
  -6323756.713 7  -4478279.73744  24265610.844    24265597.906
        42.200          24.500
 -10428773.771 7  -8032953.74045  22866333.078    22866324.828
        43.500          32.700
  -5780779.725 6  -4013275.58243  24378684.461    24378673.984
        38.200          21.300
 -22424068.386 8 -17396195.41648  21400076.570    21400064.688
        49.100          51.100
 -18877075.597 7 -14598447.59346  21931421.430    21931410.250
        47.600          37.200
 -27280913.039 8 -21221644.19948  20236258.891    20236246.891
        52.300          49.400
  -3186096.410 6  -2469781.08643  24498919.781    24498910.770
        36.700          20.900
  -9458038.549 6  -6682574.28043  23845765.203    23845753.789
        41.000          21.700
 20  5 29  0  3 30.0000000  0 11G15G21G26G02G25G20G05G18G29G12G13
 -10683215.528 6  -8268976.81144  23722525.773    23722515.883
        40.900          27.600
 -10779394.956 7  -8275659.06044  23433034.188    23433022.598
        42.400          28.200
  -9545827.064 6  -7421574.69345  23634274.117    23634265.926
        39.000          35.200
  -6288340.568 6  -4450682.75244  24272349.914    24272337.094
        41.300          24.700
 -10379064.610 7  -7994219.35845  22875792.570    22875784.320
        43.600          31.600
  -5833898.761 6  -4054666.98743  24368576.711    24368565.824
        38.300          20.600
 -22390372.618 8 -17369938.97648  21406488.594    21406476.594
        48.900          51.100
 -18908627.817 7 -14623033.72046  21925417.602    21925405.953
        47.000          37.100
 -27287942.774 8 -21227121.91748  20234921.125    20234909.008
        52.900          49.300
  -3128214.040 5  -2424677.99343  24509934.578    24509925.332
        35.900          20.100
  -9497678.692 6  -6713462.67643  23838222.102    23838210.512
        41.700          22.500
 20  5 29  0  3 45.0000000  0 11G15G21G26G02G25G20G05G18G29G12G13
 -10733912.997 6  -8308481.31544  23712878.406    23712867.988
        41.600          28.000
 -10810535.043 7  -8299924.04544  23427108.375    23427097.195
        42.400          28.200
  -9573085.446 6  -7442814.98145  23629087.453    23629078.383
        39.200          35.000
  -6252914.230 6  -4423077.84044  24279091.828    24279079.008
        41.500          24.200
 -10329299.519 7  -7955441.38645  22885263.164    22885254.445
        43.100          31.400
  -5886991.618 6  -4096038.00443  24358472.992    24358461.930
        37.300          20.400
 -22356570.216 8 -17343599.44948  21412921.070    21412909.480
        48.500          51.100
 -18940128.943 7 -14647580.02846  21919422.805    21919411.449
        47.300          37.300
 -27294862.860 8 -21232514.19348  20233604.125    20233592.535
        53.600          49.400
  -3070332.405 6  -2379575.49343  24520949.930    24520939.512
        36.600          19.600
  -9537256.948 6  -6744302.85943  23830690.906    23830679.199
        40.900          22.300
 20  5 29  0  4  0.0000000  0 11G15G21G26G02G25G20G05G18G29G12G13
 -10784582.925 6  -8347964.33744  23703236.836    23703226.301
        41.700          28.500
 -10841644.019 7  -8324164.78444  23421188.289    23421177.168
        42.200          26.800
  -9600222.207 6  -7463960.50545  23623922.555    23623914.656
        38.800          34.600
  -6217477.626 6  -4395464.92244  24285835.641    24285822.176
        41.500          25.300
 -10279478.822 7  -7916620.08345  22894743.313    22894735.004
        43.600          31.900
  -5940057.938 6  -4137388.33843  24348374.977    24348363.914
        38.600          20.100
 -22322661.318 8 -17317176.93148  21419373.727    21419361.902
        49.200          51.200
 -18971578.920 7 -14672086.49146  21913438.164    21913426.809
        47.900          37.400
 -27301673.117 9 -21237820.89148  20232308.461    20232296.402
        54.100          49.300
  -3012451.707 6  -2334473.70543  24531963.695    24531953.863
        36.500          18.600
  -9576772.937 6  -6775094.50943  23823171.102    23823158.984
        40.500          22.000
 20  5 29  0  4 15.0000000  0 11G15G21G26G02G25G20G05G18G29G12G13
 -10835225.032 6  -8387425.69444  23693600.383    23693589.672
        41.300          27.800
 -10872722.142 7  -8348381.46944  23415274.672    23415262.965
        42.000          27.300
  -9627237.322 6  -7485011.23345  23618782.820    23618773.867
        38.400          34.000
  -6182030.908 6  -4367844.12944  24292580.000    24292567.180
        40.000          25.200
 -10229602.995 7  -7877755.83145  22904234.547    22904225.652
        43.700          31.700
  -5993097.789 6  -4178718.06843  24338281.734    24338270.613
        37.000          19.900
 -22288646.508 8 -17290671.89048  21425846.352    21425834.938
        48.000          51.100
 -19002977.837 7 -14696553.16146  21907463.133    21907451.895
        47.300          37.600
 -27308373.338 8 -21243041.84148  20231033.352    20231021.469
        52.900          49.300
  -2954572.343 6  -2289372.93843  24542978.539    24542968.121
        37.300          18.600
  -9616226.359 6  -6805837.39443  23815662.719    23815652.184
        40.300          22.200
 20  5 29  0  4 30.0000000  0 11G15G21G26G02G25G20G05G18G29G12G13
 -10885838.747 7  -8426864.92144  23683968.234    23683958.168
        42.200          27.800
 -10903769.222 7  -8372573.96544  23409366.180    23409354.883
        42.100          29.000
  -9654130.283 6  -7505966.77145  23613664.711    23613656.637
        38.700          34.400
  -6146573.927 6  -4340215.34244  24299327.313    24299314.375
        41.800          25.000
 -10179672.241 7  -7838848.76945  22913736.227    22913727.332
        43.400          31.600
  -6046110.431 6  -4220026.56643  24328193.188    24328182.477
        37.300          20.600
 -22254525.627 8 -17264084.19848  21432339.820    21432327.469
        48.900          51.000
 -19034325.386 7 -14720979.79846  21901497.953    21901486.422
        47.200          37.100
 -27314963.077 8 -21248176.71348  20229779.414    20229767.414
        52.800          49.300
  -2896694.599 6  -2244273.42243  24553992.359    24553981.590
        38.100          18.600
  -9655616.588 6  -6836531.04643  23808166.922    23808156.035
        40.900          22.800
 20  5 29  0  4 45.0000000  0 11G15G21G26G02G25G20G05G18G29G12G13
 -10936423.979 6  -8466281.96744  23674342.086    23674332.078
        41.100          27.300
 -10934785.579 6  -8396742.52244  23403464.125    23403452.887
        41.500          27.600
  -9680901.261 6  -7526827.25745  23608570.898    23608562.531
        38.400          34.700
  -6111107.005 6  -4312578.81544  24306077.172    24306063.707
        41.600          26.000
 -10129687.171 7  -7799899.39345  22923248.109    22923239.273
        44.000          31.600
  -6099096.199 6  -4261314.14843  24318110.719    24318100.066
        37.400          20.400
 -22220299.492 8 -17237414.48548  21438852.391    21438840.977
        48.800          50.900
 -19065621.939 7 -14745366.71046  21895542.484    21895531.305
        47.400          36.900
 -27321442.684 8 -21253225.74948  20228546.305    20228534.363
        53.400          49.500
  -2838818.876 6  -2199175.49143  24565005.430    24564994.953
        39.200          19.600
  -9694943.603 6  -6867175.46243  23800682.727    23800671.840
        39.200          22.500
 20  5 29  0  5  0.0000000  0 11G15G21G26G02G25G20G05G18G29G12G13
 -10986979.835 6  -8505676.10644  23664721.781    23664711.480
        40.800          28.000
 -10965770.851 6  -8420886.86744  23397568.320    23397556.027
        41.500          28.200
  -9707549.617 6  -7547592.19845  23603499.789    23603491.422
        39.200          35.300
  -6075629.841 6  -4284934.27544  24312827.617    24312814.328
        41.400          26.000
 -10079647.952 7  -7760907.80145  22932770.539    22932761.469
        44.400          31.900
  -6152054.541 6  -4302580.31843  24308032.945    24308022.176
        37.100          19.900
 -22185968.088 8 -17210662.74848  21445385.336    21445373.453
        49.800          50.800
 -19096867.054 7 -14769713.54046  21889596.570    21889584.980
        47.300          36.900
 -27327811.673 8 -21258188.60048  20227334.266    20227322.383
        52.900          49.400
  -2780945.293 6  -2154079.23543  24576017.703    24576007.813
        39.300          19.900
  -9734206.641 6  -6897770.01443  23793210.984    23793200.449
        39.300          21.500
 20  5 29  0  5 15.0000000  0 11G15G21G26G02G25G20G05G18G29G12G13
 -11037506.244 6  -8545047.29444  23655106.977    23655096.500
        40.800          27.100
 -10996725.217 6  -8445007.10944  23391677.289    23391665.816
        41.800          28.900
  -9734075.479 6  -7568261.68245  23598451.398    23598443.500
        38.900          35.200
  -6040142.584 6  -4257281.87644  24319580.164    24319567.637
        40.300          25.400
 -10029555.110 7  -7721874.44245  22942302.172    22942293.980
        43.400          32.300
  -6204985.439 6  -4343825.11343  24297960.227    24297949.750
        36.800          20.400
 -22151531.853 8 -17183829.32348  21451938.273    21451926.566
        48.200          50.600
 -19128061.011 7 -14794020.51346  21883661.000    21883649.586
        47.200          37.200
 -27334070.031 8 -21263065.24748  20226143.516    20226131.633
        52.900          49.500
  -2723074.504 6  -2108985.13043  24587031.148    24587020.789
        40.800          20.100
  -9773405.458 6  -6928314.54243  23785752.609    23785741.547
        40.400          22.500
 20  5 29  0  5 30.0000000  0 11G15G21G26G02G25G20G05G18G29G12G13
 -11088002.597 6  -8584395.06744  23645497.766    23645487.230
        41.700          28.300
 -11027648.520 6  -8469103.16744  23385792.930    23385781.164
        41.100          29.200
  -9760478.413 6  -7588835.37945  23593428.281    23593419.328
        39.300          35.900
  -6004645.093 7  -4229621.54944  24326336.094    24326322.746
        42.100          25.900
  -9979408.869 7  -7682799.47345  22951845.313    22951836.770
        44.100          32.600
  -6257888.489 6  -4385048.24743  24287892.188    24287882.766
        36.600          21.100
 -22116990.867 8 -17156914.27148  21458511.625    21458499.566
        49.000          50.700
 -19159203.518 7 -14818287.38446  21877734.117    21877722.762
        47.100          37.000
 -27340217.290 8 -21267855.31848  20224973.625    20224961.742
        53.500          49.400
  -2665206.500 6  -2063893.21943  24598043.398    24598032.336
        40.600          22.500
  -9812539.450 6  -6958808.53343  23778304.672    23778294.605
        39.400          22.900
 20  5 29  0  5 45.0000000  0 11G15G21G26G02G25G20G05G18G29G12G13
 -11138468.810 6  -8623719.37644  23635894.438    23635883.902
        41.800          28.700
 -11058541.203 7  -8493175.36644  23379914.227    23379902.871
        42.600          27.600
  -9786758.493 6  -7609313.35546  23588426.273    23588418.141
        39.100          36.100
  -5969137.746 7  -4201953.50444  24333092.617    24333079.797
        42.000          26.200
  -9929209.835 7  -7643683.36745  22961397.383    22961389.191
        44.400          32.800
  -6310763.813 6  -4426249.72143  24277830.656    24277821.000
        36.500          21.800
 -22082345.713 8 -17129918.05548  21465104.328    21465092.387
        49.200          50.600
 -19190294.884 7 -14842514.41146  21871817.516    21871806.746
        47.600          37.300
 -27346253.874 8 -21272559.14748  20223824.977    20223812.801
        53.200          49.400
  -2607341.988 6  -2018804.04343  24609054.398    24609044.273
        40.800          23.500
  -9851608.629 6  -6989252.03343  23770870.430    23770859.484
        40.500          22.800
 20  5 29  0  6  0.0000000  0 11G15G21G26G02G25G20G05G18G29G12G13
 -11188904.152 6  -8663019.59344  23626297.008    23626286.238
        41.300          27.300
 -11089402.885 7  -8517223.40245  23374041.250    23374030.070
        42.700          30.200
  -9812915.216 6  -7629695.20646  23583449.398    23583440.855
        39.900          36.200
  -5933620.254 7  -4174277.53944  24339851.234    24339838.414
        42.100          26.200
  -9878958.183 7  -7604526.25945  22970960.344    22970951.566
        44.000          32.300
  -6363610.933 5  -4467429.25943  24267773.758    24267764.746
        35.800          21.100
 -22047596.399 8 -17102840.67348  21471716.570    21471704.922
        48.800          50.600
 -19221334.747 7 -14866701.29946  21865911.023    21865899.902
        47.000          37.600
 -27352179.176 8 -21277176.26748  20222697.359    20222685.301
        53.000          49.500
  -2549480.914 6  -1973717.54944  24620064.977    24620054.793
        41.800          25.500
  -9890612.321 6  -7019644.48743  23763448.156    23763438.090
        39.300          22.600
 20  5 29  0  6 15.0000000  0 11G15G21G26G02G25G20G05G18G29G12G13
 -11239308.466 7  -8702295.64744  23616705.352    23616694.348
        42.200          27.300
 -11120233.860 6  -8541247.51445  23368174.531    23368163.527
        41.300          30.200
  -9838948.733 6  -7649981.05545  23578495.219    23578486.617
        40.100          35.700
  -5898092.872 6  -4146593.91144  24346612.602    24346599.020
        41.300          25.600
  -9828654.571 7  -7565328.66545  22980532.477    22980524.344
        44.100          32.300
  -6416429.913 6  -4508586.84543  24257722.891    24257713.234
        36.500          20.900
 -22012743.920 8 -17075682.90648  21478348.750    21478337.336
        49.300          50.600
 -19252323.453 7 -14890848.32646  21860014.242    21860003.180
        47.100          38.000
 -27357993.337 8 -21281706.78048  20221590.828    20221578.711
        53.500          49.500
  -2491624.015 6  -1928634.31844  24631074.781    24631064.832
        41.600          24.700
  -9929550.363 6  -7049985.78343  23756039.078    23756028.191
        40.800          22.600
 20  5 29  0  6 30.0000000  0 11G15G21G26G02G25G20G05G18G29G12G13
 -11289681.167 6  -8741547.06544  23607119.891    23607109.063
        41.800          27.600
 -11151033.922 6  -8565247.53844  23362313.086    23362301.906
        41.800          28.700
  -9864858.523 6  -7670170.49945  23573564.578    23573556.270
        40.700          35.700
  -5862555.346 6  -4118902.33944  24353374.695    24353361.641
        40.600          26.400
  -9778299.091 7  -7526090.65745  22990114.820    22990106.629
        44.100          32.500
  -6469220.326 6  -4549722.19843  24247677.164    24247666.863
        37.100          21.300
 -21977788.246 8 -17048444.72648  21485000.898    21484989.133
        48.300          50.700
 -19283260.643 7 -14914955.21646  21854126.711    21854115.473
        47.300          37.000
 -27363695.991 8 -21286150.41048  20220505.883    20220493.883
        53.100          49.400
  -2433771.355 7  -1883554.36144  24642083.563    24642073.848
        42.000          26.800
  -9968422.199 6  -7080275.50943  23748642.359    23748630.887
        39.900          22.500
 20  5 29  0  6 45.0000000  0 11G15G21G26G02G25G20G05G18G29G12G13
 -11340022.078 7  -8780773.72444  23597540.289    23597529.461
        42.100          26.700
 -11181803.220 6  -8589223.58244  23356457.930    23356446.457
        41.700          29.800
  -9890644.546 6  -7690263.49545  23568658.008    23568649.465
        39.800          35.800
  -5827007.791 6  -4091202.95344  24360138.914    24360126.328
        40.200          24.600
  -9727892.255 7  -7486812.62345  22999706.695    22999698.973
        43.900          31.900
  -6521982.035 6  -4590835.15943  24237637.555    24237626.961
        37.700          21.700
 -21942729.665 8 -17021126.35548  21491672.438    21491660.555
        48.700          50.600
 -19314146.403 7 -14939022.02746  21848249.609    21848238.547
        47.000          37.300
 -27369287.073 8 -21290507.09648  20219441.828    20219429.887
        53.500          49.600
  -2375923.452 7  -1838478.12844  24653091.930    24653081.629
        42.100          26.200
 -10007227.502 6  -7110513.35043  23741257.047    23741246.570
        40.100          22.500
 20  5 29  0  7  0.0000000  0 11G15G21G26G02G25G20G05G18G29G12G13
 -11390330.387 7  -8819974.96244  23587966.414    23587956.465
        42.200          27.100
 -11212541.651 7  -8613175.57744  23350608.789    23350597.316
        42.300          29.800
  -9916306.307 6  -7710259.66446  23563774.367    23563765.883
        40.200          36.000
  -5791450.013 6  -4063495.62644  24366905.648    24366892.652
        40.800          24.800
  -9677434.156 7  -7447494.65045  23009308.969    23009300.660
        43.900          31.700
  -6574714.603 6  -4631925.43343  24227602.805    24227592.387
        38.200          21.800
 -21907568.185 8 -16993727.80348  21498363.180    21498351.414
        48.900          50.600
 -19344980.486 7 -14963048.56946  21842382.070    21842370.539
        47.200          37.600
 -27374766.143 8 -21294776.50348  20218399.063    20218387.063
        52.700          49.500
  -2318080.122 6  -1793405.46444  24664099.430    24664089.129
        41.300          26.400
 -10045965.520 6  -7140698.80243  23733885.359    23733875.059
        40.000          23.000
 20  5 29  0  7 15.0000000  0 11G15G21G26G02G25G20G05G18G29G12G13
 -11440605.796 7  -8859150.58844  23578399.547    23578389.070
        42.400          27.200
 -11243249.182 7  -8637103.50844  23344765.531    23344754.176
        42.900          29.700
  -9941843.722 6  -7730158.93346  23558914.945    23558906.578
        39.800          36.400
  -5755882.166 6  -4035780.42644  24373674.656    24373661.016
        40.700          25.200
  -9626925.287 7  -7408137.11245  23018920.500    23018912.133
        44.100          32.000
  -6627418.033 6  -4672992.99843  24217573.492    24217563.309
        39.100          22.600
 -21872304.266 8 -16966249.43648  21505073.891    21505062.418
        49.300          50.600
 -19375762.951 7 -14987034.89846  21836524.734    21836512.969
        47.300          37.500
 -27380133.114 8 -21298958.55248  20217377.891    20217365.949
        53.400          49.500
  -2260241.982 6  -1748336.85244  24675105.641    24675095.516
        41.100          26.900
 -10084635.969 6  -7170831.61943  23726526.141    23726516.016
        40.000          21.700
 20  5 29  0  7 30.0000000  0 11G15G21G26G02G25G20G05G18G29G12G13
 -11490848.437 7  -8898300.65544  23568838.703    23568827.816
        43.300          28.300
 -11273926.172 7  -8661007.62945  23338928.625    23338916.449
        43.400          30.200
  -9967256.972 6  -7749961.45546  23554079.039    23554070.145
        40.300          36.200
  -5720304.495 6  -4008057.60043  24380444.242    24380431.070
        40.600          23.900
  -9576366.439 7  -7368740.62745  23028541.125    23028533.051
        43.700          32.300
  -6680092.309 6  -4714037.85143  24207550.594    24207539.766
        39.000          22.000
 -21836938.583 8 -16938691.75948  21511803.695    21511792.047
        48.900          50.500
 -19406494.105 7 -15010981.24246  21830676.281    21830664.984
        47.500          38.000
 -27385388.274 8 -21303053.48348  20216377.844    20216365.727
        52.800          49.500
  -2202409.462 6  -1703272.61444  24686110.172    24686100.691
        41.300          25.600
 -10123238.710 6  -7200911.63843  23719181.063    23719170.059
        40.500          22.900
 20  5 29  0  7 45.0000000  0 11G15G21G26G02G25G20G05G18G29G12G13
 -11541057.521 7  -8937424.59644  23559284.359    23559273.531
        42.400          28.000
 -11304572.377 7  -8684887.76044  23333096.430    23333084.430
        43.700          29.700
  -9992545.601 6  -7769666.87046  23549266.750    23549258.207
        40.900          36.200
  -5684716.816 6  -3980326.96144  24387215.469    24387203.586
        40.900          26.800
  -9525757.705 7  -7329305.27045  23038172.344    23038163.859
        43.400          31.900
  -6732737.030 6  -4755059.67243  24197532.469    24197521.758
        38.900          22.000
 -21801471.264 8 -16911054.89848  21518552.578    21518540.930
        48.500          50.300
 -19437173.717 7 -15034887.41646  21824838.336    21824826.863
        47.400          37.900
 -27390531.263 8 -21307061.01048  20215399.078    20215387.313
        52.700          49.500
  -2144582.950 6  -1658213.05444  24697115.125    24697104.590
        40.800          26.300
 -10161773.358 6  -7230938.62143  23711848.484    23711837.539
        40.300          22.900
 20  5 29  0  8  0.0000000  0 11G15G21G26G02G25G20G05G18G29G12G13
 -11591232.758 6  -8976522.14944  23549735.930    23549725.688
        41.900          28.600
 -11335187.904 7  -8708743.99644  23327270.375    23327258.375
        43.600          29.600
 -10017709.450 6  -7789275.05646  23544478.836    23544469.883
        40.700          36.800
  -5649119.231 6  -3952588.57044  24393990.063    24393977.535
        39.500          27.100
  -9475099.554 7  -7289831.40545  23047812.070    23047803.645
        43.500          30.900
  -6785352.288 6  -4796058.52243  24187519.773    24187509.180
        39.600          22.500
 -21765902.618 8 -16883339.07448  21525321.344    21525309.637
        48.800          50.300
 -19467801.803 7 -15058753.45346  21819009.891    21818998.652
        47.500          37.900
 -27395562.010 8 -21310981.06748  20214441.820    20214429.879
        52.700          49.600
  -2086762.986 6  -1613158.61544  24708117.320    24708107.547
        40.300          27.300
 -10200239.460 6  -7260912.17644  23704528.438    23704517.141
        40.500          24.200
 20  5 29  0  8 15.0000000  0 11G15G21G26G02G25G20G05G18G29G12G13
 -11641373.345 7  -9015592.69344  23540194.328    23540184.086
        42.300          28.300
 -11365772.551 7  -8732576.16845  23321450.477    23321438.711
        43.900          30.100
 -10042748.028 6  -7808785.61446  23539713.438    23539705.480
        40.500          36.600
  -5613511.392 6  -3924842.28044  24400766.086    24400753.559
        40.200          26.900
  -9424391.917 7  -7250318.98345  23057461.297    23057453.164
        43.200          31.900
  -6837937.134 6  -4837033.70843  24177513.281    24177502.629
        39.700          22.300
 -21730232.549 8 -16855544.22248  21532109.031    21532097.148
        49.400          50.100
 -19498377.918 7 -15082578.97346  21813191.758    21813180.227
        46.900          38.000
 -27400479.651 8 -21314812.99448  20213506.328    20213494.328
        53.000          49.600
  -2028949.321 6  -1568109.06544  24719118.859    24719109.320
        40.100          27.200
 -10238636.412 6  -7290831.86043  23697221.602    23697210.480
        40.600          23.500
 20  5 29  0  8 30.0000000  0 11G15G21G26G02G25G20G05G18G29G12G13
 -11691479.137 7  -9054636.12044  23530659.078    23530649.188
        42.400          28.100
 -11396326.418 7  -8756384.36444  23315636.164    23315624.457
        44.200          29.100
 -10067661.420 6  -7828198.63646  23534972.625    23534964.141
        40.600          36.500
  -5577893.749 6  -3897088.26744  24407543.805    24407531.160
        40.300          24.400
  -9373635.649 7  -7210768.67545  23067120.102    23067111.793
        43.800          31.700
  -6890491.896 6  -4877985.44543  24167512.211    24167501.969
        40.000          22.300
 -21694461.672 8 -16827670.81948  21538916.078    21538904.078
        48.400          50.100
 -19528902.469 7 -15106364.32146  21807382.758    21807371.461
        47.200          37.400
 -27405284.770 8 -21318557.24648  20212591.680    20212579.738
        53.500          49.600
  -1971142.487 6  -1523064.85544  24730120.539    24730109.652
        40.500          25.500
 -10276963.811 6  -7320697.32243  23689927.773    23689917.004
        40.400          23.800
 20  5 29  0  8 45.0000000  0 11G15G21G26G02G25G20G05G18G29G12G13
 -11741549.848 7  -9093652.23344  23521131.797    23521121.262
        42.700          28.500
 -11426849.614 7  -8780168.65344  23309827.586    23309815.820
        43.300          29.600
 -10092449.519 6  -7847514.03246  23530256.211    23530246.965
        40.900          36.900
  -5542266.056 6  -3869326.46443  24414323.914    24414311.328
        40.900          22.900
  -9322831.085 7  -7171180.72945  23076788.063    23076778.992
        43.200          32.000
  -6943016.425 6  -4918913.59843  24157517.016    24157506.598
        40.400          22.000
 -21658590.507 8 -16799719.26648  21545742.172    21545730.465
        49.000          49.900
 -19559375.383 7 -15130109.43846  21801583.891    21801572.594
        47.500          37.000
 -27409977.178 8 -21322213.66448  20211698.602    20211686.660
        52.800          49.600
  -1913343.055 6  -1478026.40244  24741119.359    24741108.766
        39.300          25.000
 -10315221.444 6  -7350508.44544  23682647.688    23682636.742
        40.600          24.900
 20  5 29  0  9  0.0000000  0 11G15G21G26G02G25G20G05G18G29G12G13
 -11791585.039 7  -9132640.67544  23511610.125    23511599.473
        42.400          28.000
 -11457342.302 7  -8803929.16344  23304025.227    23304013.168
        43.700          28.800
 -10117112.075 7  -7866731.59946  23525563.563    23525554.316
        42.100          37.400
  -5506628.399 6  -3841556.88444  24421105.609    24421092.730
        39.600          24.000
  -9271978.579 7  -7131555.42045  23086464.828    23086456.051
        42.900          31.300
  -6995510.457 6  -4959818.00943  24147527.781    24147517.246
        40.800          22.600
 -21622619.342 8 -16771689.79648  21552587.234    21552575.469
        48.600          50.000
 -19589796.681 7 -15153814.33246  21795794.977    21795783.914
        47.400          37.800
 -27414556.626 8 -21325782.05948  20210827.305    20210815.598
        53.200          49.500
  -1855551.315 6  -1432993.96544  24752116.414    24752105.938
        38.700          24.500
 -10353408.989 6  -7380264.95243  23675380.906    23675369.727
        41.100          23.000
 20  5 29  0  9 15.0000000  0 11G15G21G26G02G25G20G05G18G29G12G13
 -11841584.258 7  -9171601.07744  23502095.742    23502085.148
        42.100          29.100
 -11487804.331 7  -8827665.79945  23298227.961    23298216.488
        43.900          30.000
 -10141648.812 6  -7885851.11546  23520893.883    23520885.574
        41.300          36.600
  -5470980.868 6  -3813779.57744  24427888.953    24427876.133
        40.100          25.900
  -9221078.430 7  -7091892.99045  23096150.977    23096142.375
        42.600          31.800
  -7047973.670 6  -5000698.39343  24137544.641    24137534.398
        40.100          21.500
 -21586548.331 8 -16743582.51648  21559451.430    21559439.430
        48.800          50.000
 -19620166.155 8 -15177478.84346  21790016.000    21790004.586
        48.300          37.800
 -27419022.867 8 -21329262.24648  20209977.555    20209965.613
        53.100          49.500
  -1797767.412 6  -1387967.61743  24763111.664    24763101.949
        38.100          23.900
 -10391525.815 6  -7409966.36943  23668128.313    23668116.371
        41.000          22.800
 20  5 29  0  9 30.0000000  0 11G15G21G26G02G25G20G05G18G29G12G13
 -11891546.777 7  -9210532.88844  23492588.000    23492577.465
        42.600          28.100
 -11518235.596 7  -8851378.45044  23292437.172    23292425.582
        44.300          29.100
 -10166059.336 7  -7904872.29546  23516248.594    23516240.051
        42.000          36.100
  -5435323.182 6  -3785994.39044  24434674.852    24434661.621
        39.900          24.400
  -9170130.811 7  -7052193.56945  23105845.969    23105837.543
        42.900          31.100
  -7100405.768 6  -5041554.56143  24127567.008    24127556.355
        40.000          21.700
 -21550377.594 8 -16715397.53248  21566334.586    21566322.410
        48.200          50.100
 -19650483.624 7 -15201102.83346  21784246.781    21784235.543
        47.400          37.800
 -27423375.638 8 -21332654.01848  20209149.117    20209137.176
        52.800          49.500
  -1739991.261 6  -1342947.32243  24774106.133    24774096.418
        37.100          22.900
 -10429571.440 6  -7439612.28043  23660888.375    23660876.316
        40.600          21.800
 20  5 29  0  9 45.0000000  0 11G15G21G26G02G25G20G05G18G29G12G13
 -11941472.401 6  -9249435.95044  23483087.344    23483076.867
        41.700          28.400
 -11548636.171 7  -8875067.19145  23286652.133    23286640.074
        44.200          30.200
 -10190343.595 6  -7923795.08446  23511626.984    23511618.266
        40.800          36.000
  -5399655.548 6  -3758201.45844  24441461.766    24441449.121
        40.300          24.100
  -9119136.231 7  -7012457.55345  23115549.844    23115541.477
        42.900          31.000
  -7152806.628 6  -5082386.37043  24117595.711    24117584.414
        40.100          21.700
 -21514107.546 8 -16687135.16348  21573236.320    21573224.496
        48.500          50.000
 -19680749.214 8 -15224686.39846  21778486.648    21778476.230
        48.100          37.100
 -27427614.933 8 -21335957.36548  20208342.023    20208330.082
        53.000          49.500
  -1682223.821 6  -1297933.81443  24785098.484    24785088.887
        36.300          22.000
 -10467545.633 6  -7469202.53343  23653661.367    23653649.836
        40.800          22.600
 20  5 29  0 10  0.0000000  0 11G15G21G26G02G25G20G05G18G29G12G13
 -11991360.969 7  -9288310.12444  23473593.992    23473583.281
        42.000          28.500
 -11579006.087 7  -8898732.03244  23280872.984    23280860.809
        43.900          29.300
 -10214501.606 6  -7942619.50946  23507030.109    23507021.566
        41.300          36.600
  -5363978.068 6  -3730400.85344  24448250.477    24448238.066
        40.300          25.400
  -9068095.274 7  -6972685.40945  23125261.875    23125254.094
        42.700          31.200
  -7205176.248 6  -5123193.83843  24107630.273    24107618.918
        40.200          21.300
 -21477738.820 8 -16658795.90148  21580157.422    21580145.188
        48.500          49.900
 -19710963.017 8 -15248229.61146  21772737.641    21772726.461
        48.000          37.700
 -27431740.600 8 -21339172.17248  20207557.313    20207545.195
        52.800          49.500
  -1624465.396 6  -1252927.34843  24796090.781    24796079.836
        36.200          22.000
 -10505448.155 6  -7498736.93243  23646448.297    23646437.527
        40.500          22.900
 20  5 29  0 10 15.0000000  0 11G15G21G26G02G25G20G05G18G29G12G13
 -12041211.836 7  -9327154.92444  23464108.031    23464096.969
        42.600          29.100
 -11609345.239 7  -8922372.90644  23275099.461    23275087.695
        44.800          29.000
 -10238533.029 6  -7961345.28246  23502457.516    23502448.445
        40.700          36.800
  -5328290.555 6  -3702592.42144  24455041.367    24455029.250
        39.400          25.300
  -9017008.193 7  -6932877.32645  23134983.820    23134975.453
        42.700          30.800
  -7257514.319 6  -5163976.71743  24097669.922    24097659.035
        40.500          20.900
 -21441271.642 8 -16630379.93048  21587096.672    21587084.730
        48.900          50.100
 -19741124.959 7 -15271732.40646  21766998.242    21766987.004
        47.500          38.200
 -27435752.641 8 -21342298.43748  20206793.664    20206781.781
        52.800          49.500
  -1566716.108 6  -1207927.98443  24807081.172    24807070.109
        37.000          21.500
 -10543278.507 6  -7528215.11443  23639250.328    23639238.738
        40.400          22.900
 20  5 29  0 10 30.0000000  0 11G15G21G26G02G25G20G05G18G29G12G13
 -12091024.624 6  -9365970.05344  23454628.617    23454617.613
        41.900          29.100
 -11639653.943 7  -8945990.05744  23269332.078    23269320.195
        44.500          29.900
 -10262437.818 6  -7979972.38846  23497907.617    23497899.367
        41.000          36.400
  -5292593.174 6  -3674776.29344  24461834.703    24461822.586
        39.800          24.700
  -8965875.433 7  -6893033.64545  23144714.375    23144705.480
        43.400          30.700
  -7309820.527 6  -5204734.79643  24087716.266    24087705.203
        39.600          20.100
 -21404706.269 7 -16601887.43548  21594054.820    21594042.879
        47.800          49.800
 -19771235.017 7 -15295194.78446  21761268.563    21761257.031
        47.700          38.300
 -27439650.704 8 -21345335.89348  20206052.094    20206040.270
        52.600          49.500
  -1508976.422 6  -1162936.12143  24818068.133    24818057.480
        36.800          21.100
 -10581036.249 6  -7557636.69443  23632064.906    23632053.727
        41.200          22.500
 20  5 29  0 10 45.0000000  0 11G15G21G26G02G25G20G05G18G29G12G13
 -12140798.919 7  -9404755.18244  23445156.688    23445146.270
        42.200          28.900
 -11669931.883 7  -8969583.23744  23263570.461    23263558.227
        45.000          29.400
 -10286215.502 6  -7998500.43646  23493382.125    23493374.930
        40.700          36.600
  -5256885.887 6  -3646952.44844  24468628.984    24468616.867
        39.500          24.400
  -8914697.157 7  -6853154.49245  23154453.336    23154444.734
        42.600          30.400
  -7362094.757 6  -5245467.95443  24077768.477    24077758.234
        39.300          19.900
 -21368042.743 8 -16573318.46448  21601032.094    21601019.742
        48.700          50.000
 -19801292.985 8 -15318616.56946  21755548.594    21755537.297
        48.200          38.000
 -27443434.493 8 -21348284.29948  20205331.867    20205319.984
        51.900          49.500
  -1451246.369 6  -1117951.73843  24829053.383    24829043.141
        37.400          21.100
 -10618720.983 6  -7587001.40843  23624893.078    23624882.074
        41.100          22.800
 20  5 29  0 11  0.0000000  0 11G15G21G26G02G25G20G05G18G29G12G13
 -12190534.223 7  -9443509.93944  23435692.461    23435681.691
        42.300          29.000
 -11700179.192 7  -8993152.54044  23257814.633    23257801.813
        45.100          29.600
 -10309865.963 6  -8016929.35046  23488882.633    23488874.793
        41.400          36.800
  -5221168.538 6  -3619120.78544  24475426.469    24475413.707
        39.700          25.800
  -8863473.803 7  -6813240.21745  23164200.734    23164192.543
        43.000          30.200
  -7414336.652 6  -5286175.88843  24067827.484    24067816.715
        38.900          20.400
 -21331281.253 8 -16544673.14848  21608027.398    21608015.105
        48.400          49.900
 -19831298.895 8 -15341997.78646  21749838.867    21749827.805
        48.400          38.500
 -27447104.045 8 -21351143.68948  20204633.820    20204621.586
        52.800          49.500
  -1393526.394 6  -1072975.22243  24840037.063    24840026.938
        37.300          21.300
 -10656332.132 6  -7616308.77743  23617736.141    23617725.313
        40.400          22.300
 20  5 29  0 11 15.0000000  0 11G15G21G26G02G25G20G05G18G29G12G13
 -12240230.475 7  -9482234.25044  23426236.094    23426224.973
        42.800          29.800
 -11730396.101 7  -9016698.16744  23252064.234    23252052.527
        45.000          29.400
 -10333389.326 6  -8035259.23146  23484406.133    23484398.176
        40.800          37.500
  -5185441.567 6  -3591281.59844  24482224.250    24482212.309
        39.800          24.000
  -8812206.007 7  -6773291.31345  23173956.672    23173948.422
        43.100          30.500
  -7466546.429 6  -5326858.78643  24057892.281    24057881.336
        38.700          19.900
 -21294422.797 8 -16515952.27748  21615041.133    21615029.074
        48.700          49.900
 -19861252.910 8 -15365338.56146  21744138.492    21744127.430
        48.000          38.600
 -27450659.526 8 -21353914.19148  20203957.313    20203944.961
        52.300          49.600
  -1335817.141 6  -1028007.04943  24851019.992    24851009.398
        38.400          20.100
 -10693869.635 6  -7645558.75543  23610592.633    23610582.156
        40.400          22.600
 20  5 29  0 11 30.0000000  0 11G15G21G26G02G25G20G05G18G29G12G13
 -12289886.910 7  -9520927.56144  23416786.688    23416775.742
        43.000          28.900
 -11760582.271 7  -9040219.82844  23246319.836    23246307.953
        44.500          29.600
 -10356785.062 6  -8053489.66746  23479954.195    23479946.004
        41.300          38.000
  -5149704.504 6  -3563434.58643  24489025.563    24489012.508
        40.200          22.800
  -8760893.830 7  -6733307.82945  23183721.445    23183713.020
        42.500          31.100
  -7518723.525 6  -5367516.25843  24047963.289    24047952.285
        38.900          19.600
 -21257467.347 8 -16487155.83248  21622073.461    21622061.402
        48.300          49.900
 -19891154.798 7 -15388638.72346  21738448.555    21738437.316
        47.800          38.200
 -27454100.419 8 -21356595.41548  20203302.523    20203290.582
        52.500          49.600
  -1278118.543 6   -983047.17243  24861998.844    24861988.660
        38.800          19.900
 -10731332.817 6  -7674750.81843  23603464.703    23603453.172
        40.800          22.600
 20  5 29  0 11 45.0000000  0 11G15G21G26G02G25G20G05G18G29G12G13
 -12339503.399 7  -9559589.72844  23407344.859    23407334.031
        42.600          29.400
 -11790738.206 7  -9063717.94844  23240581.406    23240569.289
        44.800          28.900
 -10380053.368 6  -8071620.81246  23475526.773    23475518.523
        41.300          38.300
  -5113957.782 6  -3535579.99043  24495827.672    24495815.613
        38.400          23.000
  -8709538.021 7  -6693290.34845  23193493.906    23193485.949
        43.400          30.400
  -7570868.043 6  -5408148.32143  24038040.813    24038029.926
        38.200          19.900
 -21220415.510 8 -16458284.27848  21629124.203    21629112.027
        48.800          49.700
 -19921004.808 8 -15411898.45646  21732768.055    21732756.934
        48.300          38.600
 -27457426.933 8 -21359187.50448  20202669.102    20202657.160
        52.200          49.500
  -1220431.340 6   -938096.17643  24872975.719    24872966.063
        38.700          20.100
 -10768721.612 6  -7703884.92943  23596349.953    23596338.715
        40.400          22.900
 20  5 29  0 12  0.0000000  0 11G15G21G26G02G25G20G05G18G29G12G13
 -12389079.321 7  -9598220.29644  23397910.141    23397899.488
        42.300          28.300
 -11820863.539 7  -9087192.19944  23234848.383    23234836.617
        44.100          28.900
 -10403193.814 6  -8089652.31346  23471123.234    23471114.926
        41.700          38.800
  -5078201.156 6  -3507717.72143  24502632.438    24502619.441
        39.300          22.600
  -8658138.746 7  -6653238.98945  23203274.789    23203266.656
        43.200          31.200
  -7622979.463 6  -5448754.57443  24028123.766    24028113.172
        38.000          19.900
 -21183267.009 8 -16429337.39848  21636193.344    21636181.168
        48.300          49.700
 -19950802.683 8 -15435117.57046  21727097.727    21727086.488
        48.200          38.000
 -27460638.649 8 -21361690.14148  20202058.336    20202046.160
        53.200          49.600
  -1162755.413 6   -893153.96043  24883952.242    24883941.414
        39.600          20.100
 -10806035.316 6  -7732960.51143  23589249.398    23589237.691
        40.900          22.200
 20  5 29  0 12 15.0000000  0 11G15G21G26G02G25G20G05G18G29G12G13
 -12438614.277 7  -9636818.92944  23388484.242    23388473.297
        42.500          29.900
 -11850958.176 7  -9110642.54244  23229121.992    23229110.109
        44.700          28.100
 -10426206.107 6  -8107583.96546  23466744.531    23466736.105
        40.700          38.200
  -5042434.549 6  -3479847.67543  24509438.070    24509426.188
        39.700          22.600
  -8606696.227 7  -6613153.93745  23213064.133    23213055.414
        42.800          30.600
  -7675057.728 6  -5489335.02043  24018213.648    24018203.055
        37.800          19.600
 -21146022.729 8 -16400315.89548  21643280.570    21643268.570
        48.800          49.600
 -19980548.272 8 -15458295.93646  21721437.484    21721426.480
        48.000          38.000
 -27463735.407 8 -21364103.19548  20201468.938    20201456.820
        53.000          49.700
  -1105091.184 6   -848220.85043  24894924.734    24894915.020
        39.500          19.900
 -10843273.749 6  -7761977.44344  23582162.563    23582151.090
        41.300          25.400
 20  5 29  0 12 30.0000000  0 11G15G21G26G02G25G20G05G18G29G12G13
 -12488107.848 6  -9675385.33144  23379066.328    23379055.148
        41.900          28.800
 -11881022.256 7  -9134069.06844  23223400.930    23223388.871
        44.300          29.700
 -10449090.132 6  -8125415.66846  23462389.133    23462380.883
        40.900          37.900
  -5006657.885 6  -3451969.78743  24516246.938    24516234.352
        40.700          22.800
  -8555210.887 7  -6573035.51444  23222860.883    23222853.219
        42.300          29.600
  -7727102.501 6  -5529889.33743  24008309.914    24008299.262
        37.900          19.900
 -21108682.728 8 -16371219.79048  21650386.367    21650374.250
        48.600          49.700
 -20010241.622 8 -15481433.59546  21715786.633    21715775.570
        48.700          38.800
 -27466717.022 8 -21366426.53348  20200901.641    20200889.875
        52.900          49.800
  -1047438.821 6   -803297.02243  24905895.922    24905884.801
        40.200          20.100
 -10880436.239 7  -7790935.21944  23575090.797    23575079.969
        42.000          24.400
 20  5 29  0 12 45.0000000  0 11G15G21G26G02G25G20G05G18G29G12G13
 -12537559.885 6  -9713919.37044  23369655.555    23369644.492
        41.800          28.900
 -11911056.043 7  -9157471.98644  23217685.266    23217673.793
        44.900          29.100
 -10471845.989 6  -8143147.49246  23458058.453    23458050.789
        40.800          37.400
  -4970871.636 6  -3424084.41043  24523056.727    24523043.848
        40.500          22.300
  -8503683.387 6  -6532884.24444  23232666.781    23232658.590
        41.900          29.800
  -7779113.765 6  -5570417.51443  23998412.367    23998402.301
        38.300          20.100
 -21071247.470 8 -16342049.47548  21657509.914    21657498.676
        48.400          49.700
 -20039882.936 7 -15504530.70446  21710146.492    21710135.195
        47.900          38.200
 -27469583.591 8 -21368660.22848  20200356.086    20200344.203
        53.100          49.700
   -989799.161 6   -758383.05443  24916864.180    24916853.938
        41.400          20.600
 -10917522.729 6  -7819833.76443  23568033.234    23568022.816
        41.300          23.300
 20  5 29  0 13  0.0000000  0 11G15G21G26G02G25G20G05G18G29G12G13
 -12586969.875 6  -9752420.63644  23360252.539    23360242.063
        41.600          28.000
 -11941059.359 7  -9180851.16644  23211976.070    23211964.246
        44.500          29.000
 -10494473.136 6  -8160779.03646  23453752.359    23453745.105
        41.700          37.900
  -4935075.419 6  -3396191.28843  24529868.156    24529855.805
        41.400          22.500
